city,lat,lng,country,iso2,iso3,population,distance_from_tehran
Aba,5.1167,7.3667,Nigeria,NG,NGA,1530000,15376.314484433027
Abidjan,5.3167,-4.0333,Côte d'Ivoire,CI,CIV,4980000,14825.679927417523
Abu Dhabi,24.4667,54.3667,United Arab Emirates,AE,ARE,1483000,11309.216315395224
Abuja,9.0667,7.4833,Nigeria,NG,NGA,3770000,13950.80969492004
Accra,5.55,-0.2,Ghana,GH,GHA,2388000,16819.558121170023
Adana,37.0,35.3213,Turkey,TR,TUR,1765981,13809.636420479554
Addis Ababa,9.03,38.74,Ethiopia,ET,ETH,3041002,10122.008189875327
Adelaide,-34.9275,138.6,Australia,AU,AUS,1295714,10750.053922977615
Agwār,27.18,78.02,India,IN,IND,1585705,13996.450105161743
Ahmedabad,23.03,72.58,India,IN,IND,8009000,10286.400540019813
Ahvāz,31.3203,48.6692,Iran,IR,IRN,1261042,9841.393388923674
Akçaabat,41.0167,39.55,Turkey,TR,TUR,1215351,16371.521707773072
Al Başrah,30.515,47.81,Iraq,IQ,IRQ,1326564,8223.195326910934
Aleppo,36.2,37.16,Syria,SY,SYR,1916781,8777.657107890109
Alexandria,31.1975,29.8925,Egypt,EG,EGY,4870000,1869.6670348446999
Algiers,36.7539,3.0589,Algeria,DZ,DZA,3415811,7503.379693083503
Almaty,43.2775,76.8958,Kazakhstan,KZ,KAZ,1916822,15344.68925138443
Alīgarh,27.88,78.08,India,IN,IND,1131160,7401.474674122073
Amman,31.9497,35.9328,Jordan,JO,JOR,4007526,4367.732854947686
Amritsar,31.64,74.86,India,IN,IND,1132383,3265.15508707797
Amsterdam,52.3728,4.8936,Netherlands,NL,NLD,1459402,5477.2452809943325
Ankang,32.6877,109.0235,China,CN,CHN,2629906,2532.755588181215
Ankara,39.93,32.85,Turkey,TR,TUR,5503985,12862.509920971725
Anqing,30.5,117.0333,China,CN,CHN,4723000,4533.815611121286
Anshan,41.1066,122.9895,China,CN,CHN,3645884,15348.200006546129
Anshun,26.2456,105.934,China,CN,CHN,2353100,10454.963322666428
Antalya,36.8874,30.7075,Turkey,TR,TUR,2426356,12049.532942713442
Antananarivo,-18.9333,47.5167,Madagascar,MG,MDG,2610000,9593.607402965057
Arequipa,-16.4,-71.5333,Peru,PE,PER,1008290,3183.1240739148643
Athens,37.9842,23.7281,Greece,GR,GRC,3041131,8122.215357073941
Atlanta,33.7628,-84.422,United States,US,USA,5046555,7222.661040895665
Auckland,-36.8406,174.74,New Zealand,NZ,NZL,1346091,11981.843852649528
Aurangābād,19.88,75.32,India,IN,IND,1371330,7708.030930438068
Austin,30.3005,-97.7522,United States,US,USA,1659251,5567.028742139366
Bafoussam,5.4667,10.4167,Cameroon,CM,CMR,1146000,9144.464495708555
Bagam,1.0833,104.0333,Indonesia,ID,IDN,1230097,16644.599075748403
Baghdad,33.3153,44.3661,Iraq,IQ,IRQ,6183000,14043.346139300935
Baicheng,45.6148,122.832,China,CN,CHN,2032356,3917.8275198709416
Baicheng,23.901,106.6194,China,CN,CHN,3669400,6921.602729253189
Baishan,41.9377,126.4179,China,CN,CHN,1296127,6704.6834943873855
Baiyin,36.5448,104.1766,China,CN,CHN,1708751,7828.185755802691
Baku,40.3667,49.8352,Azerbaijan,AZ,AZE,2300500,11170.930727442
Balandougou,13.3558,-9.5517,Mali,ML,MLI,1596882,11703.188621018911
Baltimore,39.3051,-76.6144,United States,US,USA,2205092,8989.247082959811
Bamako,12.6458,-7.9922,Mali,ML,MLI,2009109,10497.656916682858
Bamenda,5.9614,10.1517,Cameroon,CM,CMR,2000000,3615.693231581676
Bandar Lampung,-5.45,105.2667,Indonesia,ID,IDN,1166761,8678.46189756829
Bangalore,12.9789,77.5917,India,IN,IND,15386000,4154.776400783617
Bangkok,13.7525,100.4942,Thailand,TH,THA,18007000,7654.8274409366595
Baoding,38.8671,115.4845,China,CN,CHN,11860000,14839.913077111129
Baojishi,34.3609,107.1751,China,CN,CHN,3738700,8953.069824342181
Baoshan,25.1211,99.169,China,CN,CHN,2627000,7383.391375344533
Baotou,40.6562,109.8345,China,CN,CHN,2709378,11765.449680686066
Barcelona,41.3825,2.1769,Spain,ES,ESP,4800000,8151.092727679889
Bareilly,28.364,79.415,India,IN,IND,1000000,15677.140293976005
Barquisimeto,10.0678,-69.3467,Venezuela,VE,VEN,1059092,14415.193605990957
Barranquilla,10.9833,-74.8019,Colombia,CO,COL,1326588,7622.771523006311
Bazhou,31.8576,106.7559,China,CN,CHN,3283148,5068.1698671073655
Beidao,34.602,105.918,China,CN,CHN,1225000,10276.02494663654
Beihai,21.4667,109.1,China,CN,CHN,1853227,12141.029099265446
Beijing,39.904,116.4075,China,CN,CHN,18522000,15710.807912087346
Bekasi,-6.2349,106.9923,Indonesia,ID,IDN,2381053,11950.99614317227
Belgrade,44.82,20.46,Serbia,RS,SRB,1378682,10567.049433243234
Belo Horizonte,-19.9167,-43.9333,Brazil,BR,BRA,5328000,8117.681258836004
Belém,-1.4558,-48.5039,Brazil,BR,BRA,1499641,11277.993846940282
Bengbu,32.9354,117.3531,China,CN,CHN,3296408,11232.95801126489
Benin City,6.3333,5.6222,Nigeria,NG,NGA,1147188,12089.01787470039
Benxi,41.292,123.761,China,CN,CHN,1709538,4076.5638805752255
Berlin,52.52,13.405,Germany,DE,DEU,4473101,7160.720213728194
Bhopāl,23.25,77.4167,India,IN,IND,1798218,6228.982212296443
Bijie,27.3019,105.2863,China,CN,CHN,6899636,3650.569389759471
Bilāspur,22.09,82.15,India,IN,IND,1625502,15327.110184609402
Binzhou,37.3806,118.0125,China,CN,CHN,3928568,7442.989846771507
Birmingham,52.48,-1.9025,United Kingdom,GB,GBR,2919600,4823.708666200439
Bishkek,42.8747,74.6122,Kyrgyzstan,KG,KGZ,1074075,11184.545452668059
Biên Hòa,10.95,106.8167,Vietnam,VN,VNM,1104000,8321.073978966064
Blantyre,-15.7861,35.0058,Malawi,MW,MWI,1895973,3953.331458408618
Boankra,6.6944,-1.4028,Ghana,GH,GHA,3348000,3719.6190269241765
Bogor,-6.5966,106.7972,Indonesia,ID,IDN,1030720,11468.736958168289
Bogotá,4.7111,-74.0722,Colombia,CO,COL,7968095,17354.205890660312
Boosaaso,11.2886,49.1819,Somalia,SO,SOM,2000000,15320.277581515817
Boston,42.3188,-71.0852,United States,US,USA,4208580,13804.465486286592
Bozhou,33.8626,115.7742,China,CN,CHN,4996844,13246.140906586916
Brasília,-15.7939,-47.8828,Brazil,BR,BRA,3039444,10335.908116064908
Brazzaville,-4.2694,15.2714,Congo (Brazzaville),CG,COG,1827000,5493.1041992331675
Brisbane,-27.4678,153.0281,Australia,AU,AUS,2360241,7082.666084236303
Bronx,40.8501,-73.8662,United States,US,USA,1472654,7848.496650422304
Brooklyn,40.6501,-73.9496,United States,US,USA,2736074,9644.28301703918
Brussels,50.8467,4.3525,Belgium,BE,BEL,1743000,9173.0454163827
Bucharest,44.4325,26.1039,Romania,RO,ROU,1883425,5270.660028797581
Budapest,47.4925,19.0514,Hungary,HU,HUN,2997958,13014.611814246746
Buenos Aires,-34.5997,-58.3819,Argentina,AR,ARG,16710000,1732.6198933961934
Buffalo,42.9018,-78.8487,United States,US,USA,1004655,6970.168299802578
Bujumbura,-3.3833,29.3667,Burundi,BI,BDI,1075000,9820.229000266367
Bukavu,-2.5,28.8667,Congo (Kinshasa),CD,COD,1133000,6565.8311382869
Bursa,40.1833,29.05,Turkey,TR,TUR,2901396,10550.553600351133
Busan,35.18,129.075,South Korea,KR,KOR,3453198,10315.045876003856
Cacuaco,-8.8053,13.2444,Angola,AO,AGO,1279488,11175.091175121943
Calgary,51.05,-114.0667,Canada,CA,CAN,1239220,9370.488243721198
Cali,3.4206,-76.5222,Colombia,CO,COL,2471474,5978.034131407581
Callao,-12.0333,-77.1333,Peru,PE,PER,1129854,7091.279365248539
Caloocan City,14.65,120.97,Philippines,PH,PHL,1661584,18470.328117280213
Campinas,-22.9058,-47.0608,Brazil,BR,BRA,1213792,8614.893446232498
Canagatan,18.0,121.8,Philippines,PH,PHL,1273219,11847.575673889101
Cangzhou,38.3037,116.8452,China,CN,CHN,7544300,6730.543046853045
Caracas,10.4806,-66.9036,Venezuela,VE,VEN,2245744,12734.390176908222
Cartagena,10.4,-75.5,Colombia,CO,COL,1036412,14931.953192406718
Casablanca,33.5333,-7.5833,Morocco,MA,MAR,4370000,12200.532819190787
Cawnpore,26.4499,80.3319,India,IN,IND,2701324,9895.107739350979
Chandīgarh,30.75,76.78,India,IN,IND,1055450,13938.986367103258
Changchun,43.9,125.2,China,CN,CHN,4408154,5458.1265304678955
Changde,29.0397,111.6839,China,CN,CHN,5827200,13082.103574574343
Changsha,28.1987,112.9709,China,CN,CHN,4766296,4001.416156797117
Changshu,31.65,120.7333,China,CN,CHN,1677050,14248.801256738436
Changwon,35.2708,128.6631,South Korea,KR,KOR,1046054,14095.972357161243
Changzhi,36.1953,113.097,China,CN,CHN,3334565,7798.814144669879
Changzhou,31.8122,119.9692,China,CN,CHN,3601079,4631.041652871042
Chaoyang,41.5757,120.4486,China,CN,CHN,3044641,8478.999637021294
Chaozhou,23.67,116.63,China,CN,CHN,2656600,15389.74703777714
Charlotte,35.2083,-80.8303,United States,US,USA,1516107,7227.487287878213
Chattogram,22.335,91.8325,Bangladesh,BD,BGD,7000000,10946.643325008017
Chelyabinsk,55.15,61.4,Russia,RU,RUS,1202371,9899.785293486619
Chengdu,30.66,104.0633,China,CN,CHN,14645000,13892.077914777843
Chengtangcun,35.0833,117.15,China,CN,CHN,1603659,8418.193568763889
Chennai,13.0825,80.275,India,IN,IND,12395000,9509.083485311578
Chenzhou,25.7989,113.0267,China,CN,CHN,4744500,7584.04904365633
Chiang Mai,18.7953,98.9986,Thailand,TH,THA,1198000,5538.377732571336
Chicago,41.8375,-87.6866,United States,US,USA,8595181,8910.396812722829
Chifeng,42.2663,118.9223,China,CN,CHN,4341245,6221.918044914552
Chinchvad,18.6186,73.8037,India,IN,IND,1729320,11132.008623573794
Chizhou,30.6583,117.4849,China,CN,CHN,1402518,11839.875230596117
Chongqing,29.55,106.5069,China,CN,CHN,12135000,14200.97408552222
Chongzuo,22.4167,107.3667,China,CN,CHN,2099400,14250.761526215118
Chuzhou,32.3062,118.3115,China,CN,CHN,3987054,11567.052245809777
Cilacap,-7.7167,109.017,Indonesia,ID,IDN,1174964,16863.534841048328
Cincinnati,39.1413,-84.506,United States,US,USA,1712287,12238.742447874449
Ciudad Nezahualcóyotl,19.4081,-99.0186,Mexico,MX,MEX,1109363,3564.1721675953245
Cleveland,41.4764,-81.6805,United States,US,USA,1683059,6712.441819978444
Cologne,50.9364,6.9528,Germany,DE,DEU,1083498,8239.758117597003
Colombo,6.9344,79.8428,Sri Lanka,LK,LKA,2323826,7243.333596403132
Columbus,39.9862,-82.9855,United States,US,USA,1556848,14203.200315981276
Comayagüela,14.0981,-87.2097,Honduras,HN,HND,1250000,6872.376070098306
Conakry,9.5092,-13.7122,Guinea,GN,GIN,1667864,12956.623499151096
Copenhagen,55.6761,12.5683,Denmark,DK,DNK,1366301,10354.787239586498
Curitiba,-25.4297,-49.2711,Brazil,BR,BRA,1879355,12675.932129799883
Córdoba,-31.4167,-64.1833,Argentina,AR,ARG,1565112,5038.548132462573
Cần Thơ,10.0333,105.7833,Vietnam,VN,VNM,1237300,1973.2416482379315
Dadukou,26.5849,101.7149,China,CN,CHN,1214121,3125.475013615699
Daegu,35.8717,128.6017,South Korea,KR,KOR,2461002,12523.118126880401
Daejeon,36.351,127.385,South Korea,KR,KOR,1475221,1397.7084906001967
Dakar,14.6928,-17.4467,Senegal,SN,SEN,1438725,8576.268516289565
Dalian,38.9,121.6,China,CN,CHN,5871474,12114.149269136718
Dallas,32.7935,-96.7667,United States,US,USA,5668165,16177.558692290402
Damascus,33.5131,36.2919,Syria,SY,SYR,1754000,13867.770801216848
Dandong,40.1167,124.3833,China,CN,CHN,2444697,10133.69265992108
Daqing,46.5979,125.008,China,CN,CHN,2904532,8557.205084835416
Dar es Salaam,-6.8161,39.2803,Tanzania,TZ,TZA,7962000,8819.419044291351
Davao,7.0667,125.6,Philippines,PH,PHL,1776949,10148.543326066458
Dayan,26.8808,100.2208,China,CN,CHN,1296000,7294.2813434589625
Dazhou,31.2152,107.4947,China,CN,CHN,5468097,14652.418349277876
Delhi,28.61,77.23,India,IN,IND,32226000,8386.299109323389
Denizli,37.7667,29.0833,Turkey,TR,TUR,1027782,12559.573274191924
Denpasar,-8.65,115.2167,Indonesia,ID,IDN,1779122,12860.213334000795
Denver,39.762,-104.8758,United States,US,USA,2650725,5760.195033307329
Depok,-6.394,106.8225,Indonesia,ID,IDN,2330333,14401.19868795197
Detroit,42.3834,-83.1024,United States,US,USA,3522856,15774.729160636909
Deyang,31.1289,104.395,China,CN,CHN,3877000,9184.265274984433
Dezhou,37.4513,116.3105,China,CN,CHN,5611194,2794.1148863430512
Dhaka,23.7639,90.3889,Bangladesh,BD,BGD,18627000,13351.536821393234
Dhanbād,23.7998,86.4305,India,IN,IND,1162472,1885.0360040349512
Dingxi,35.5806,104.6263,China,CN,CHN,2698624,15905.434884740429
Dingzhou,38.5158,114.9845,China,CN,CHN,1165182,8861.968374719798
Diyarbakır,37.91,40.24,Turkey,TR,TUR,1732396,13096.134298678642
Doha,25.2867,51.5333,Qatar,QA,QAT,1186023,13343.683091649555
Domaa-Ahenkro,7.2833,-2.8833,Ghana,GH,GHA,1000000,3711.518016706285
Dongguan,23.0475,113.7493,China,CN,CHN,10646000,6375.737193582786
Douala,4.05,9.7,Cameroon,CM,CMR,5768400,14187.91613031973
Dubai,25.2631,55.2972,United Arab Emirates,AE,ARE,3331420,11166.366112547232
Dublin,53.35,-6.2603,Ireland,IE,IRL,1173179,11891.817102086496
Ecatepec,19.6097,-99.06,Mexico,MX,MEX,1929926,14581.019439188354
Edmonton,53.5344,-113.4903,Canada,CA,CAN,1062643,4895.538192514517
El Kelaa des Srarhna,32.0481,-7.4083,Morocco,MA,MAR,1450021,7994.599254128221
Ezhou,30.3972,114.8842,China,CN,CHN,1079353,10295.267128207215
Eşfahān,32.6447,51.6675,Iran,IR,IRN,2219343,14687.144223754723
Faisalabad,31.4167,73.0911,Pakistan,PK,PAK,3203846,4194.63665218114
Fangchenggang,21.6,108.3,China,CN,CHN,1046068,18469.725832292075
Farīdābād,28.4167,77.3,India,IN,IND,1404653,7628.761833099559
Fortaleza,-3.7275,-38.5275,Brazil,BR,BRA,2452185,16545.442117208124
Foshan,23.0292,113.1056,China,CN,CHN,9498863,11457.542181982113
Fukuoka,33.5833,130.4,Japan,JP,JPN,2286000,7583.964857354849
Fuqing,25.7232,119.3735,China,CN,CHN,1390487,5293.162278986924
Fushun,41.8708,123.8917,China,CN,CHN,2024000,13585.392962831535
Fuxin,42.0127,121.6486,China,CN,CHN,1819339,6882.351324175606
Fuyang,32.8986,115.8045,China,CN,CHN,8200264,4491.85078460596
Fuzhou,27.9814,116.3577,China,CN,CHN,4047200,4558.978863351612
Fuzhou,26.0769,119.2917,China,CN,CHN,3671192,12606.471591051326
Fès,34.0433,-5.0033,Morocco,MA,MAR,1112072,8679.356328971819
Ganzhou,25.8292,114.9336,China,CN,CHN,8970014,18226.95827402419
Gaoping,30.7824,106.1281,China,CN,CHN,2174000,11074.445949506193
Gaozhou,21.9135,110.8481,China,CN,CHN,1414100,12771.060663291226
Gaziantep,37.0628,37.3792,Turkey,TR,TUR,2028563,10490.261208665343
Ghāziābād,28.67,77.42,India,IN,IND,2375820,13317.65460447092
Giza,29.987,31.2118,Egypt,EG,EGY,5598402,275.8197373735714
Goiânia,-16.6667,-49.25,Brazil,BR,BRA,1393575,8517.320580199448
Gongzhuling,43.5036,124.8088,China,CN,CHN,1092692,13937.45234328626
Goyang,37.65,126.8,South Korea,KR,KOR,1061929,9539.3650069804
Guadalajara,20.6767,-103.3475,Mexico,MX,MEX,5525000,4232.69496354859
Guangyuan,32.4353,105.8398,China,CN,CHN,2484122,11190.174751609158
Guangzhou,23.13,113.26,China,CN,CHN,26940000,12840.81087475579
Guang’an,30.4673,106.6336,China,CN,CHN,3205476,12286.82030811444
Guankou,28.1417,113.625,China,CN,CHN,1168056,17164.52370030436
Guarulhos,-23.4628,-46.5328,Brazil,BR,BRA,1324781,15396.986841608796
Guatemala City,14.6099,-90.5252,Guatemala,GT,GTM,2934841,8634.678595381938
Guayaquil,-2.19,-79.8875,Ecuador,EC,ECU,2723665,14938.124243242544
Guigang,23.0961,109.6092,China,CN,CHN,4409200,7476.700862498491
Guilin,25.2819,110.2864,China,CN,CHN,5085500,5013.931349079185
Guiping,23.4,110.0833,China,CN,CHN,1511011,7965.068235833888
Guiyang,26.5794,106.7078,China,CN,CHN,3299724,12622.654834960165
Gujranwala,32.1567,74.19,Pakistan,PK,PAK,2027001,8432.801237711066
Gulou,26.0865,119.298,China,CN,CHN,2606000,11265.543069805766
Guwāhāti,26.1722,91.7458,India,IN,IND,1116267,8628.615343109605
Guyuan,36.008,106.2782,China,CN,CHN,1426000,11942.11054028783
Gwalior,26.2215,78.178,India,IN,IND,1069276,7522.502269042864
Gwangju,35.1653,126.8486,South Korea,KR,KOR,1490092,9587.290964466436
Gāzipura,23.9889,90.375,Bangladesh,BD,BGD,1199215,12048.679475390258
Haicheng,40.8523,122.7474,China,CN,CHN,1293877,11822.174361769801
Haikou,20.02,110.32,China,CN,CHN,2873358,15788.649933021017
Haiphong,20.8651,106.6838,Vietnam,VN,VNM,2103500,7788.743201499587
Hamburg,53.55,10.0,Germany,DE,DEU,2484800,10269.57854823695
Hanchuan,30.652,113.8274,China,CN,CHN,1092700,14720.676139762902
Handan,36.6116,114.4894,China,CN,CHN,2708015,8481.518490790144
Hangzhou,30.25,120.1675,China,CN,CHN,9523000,13220.26463753303
Hanoi,21.0283,105.8542,Vietnam,VN,VNM,8246600,12044.089625067101
Hanzhong,33.0794,107.026,China,CN,CHN,3416196,14066.997358454082
Harare,-17.8292,31.0522,Zimbabwe,ZW,ZWE,2150000,14207.108074970021
Harbin,45.75,126.6333,China,CN,CHN,3830000,9391.330354227814
Hargeysa,9.5631,44.0675,Somalia,SO,SOM,1200000,8098.787785254086
Havana,23.1367,-82.3589,Cuba,CU,CUB,2141652,6008.107999828487
Hebi,35.7497,114.2887,China,CN,CHN,1569208,3761.5708809226458
Hechi,24.6928,108.085,China,CN,CHN,3545700,11011.689713929638
Hefei,31.8639,117.2808,China,CN,CHN,4216940,7150.835019642318
Hegang,47.3139,130.2775,China,CN,CHN,1058665,13696.400058658766
Heihe,50.2458,127.4886,China,CN,CHN,1673899,10264.229992229157
Helsinki,60.1708,24.9375,Finland,FI,FIN,1268296,11420.82696504854
Hengshui,37.7348,115.686,China,CN,CHN,4472000,6554.331298073214
Hengyang,26.8968,112.5857,China,CN,CHN,7243400,7124.900199594862
Heyuan,23.7503,114.6923,China,CN,CHN,3093900,11251.173818403648
Heze,35.2333,115.4333,China,CN,CHN,8795939,6304.803085625232
Hezhou,24.4164,111.5478,China,CN,CHN,2072600,15360.961391596838
Hiroshima,34.3914,132.4519,Japan,JP,JPN,1198021,10113.396065036672
Ho Chi Minh City,10.7756,106.7019,Vietnam,VN,VNM,15136000,8235.265041208702
Hohhot,40.8151,111.6629,China,CN,CHN,3446100,6353.533812572261
Hong Kong,22.3,114.2,Hong Kong,HK,HKG,7450000,7862.256200352688
Houston,29.786,-95.3885,United States,US,USA,5650910,16987.285068146997
Huaibei,33.9562,116.789,China,CN,CHN,2114276,14765.084960855105
Huaihua,27.5494,109.9592,China,CN,CHN,4979600,8846.45210097326
Huainan,32.4831,117.0164,China,CN,CHN,2333896,6361.152549936121
Huaiyin,33.5819,119.028,China,CN,CHN,1264000,8099.543500806013
Huai’an,33.5058,119.1392,China,CN,CHN,2632788,8353.260684728439
Huanggang,30.45,114.875,China,CN,CHN,6333000,9301.885420704863
Huanglongsi,34.795,114.345,China,CN,CHN,4824016,6468.917530218922
Huangshan,29.7132,118.3151,China,CN,CHN,1358980,9071.098655702188
Huangshi,30.2018,115.0326,China,CN,CHN,2471700,12116.177419616111
Huazhou,32.6832,112.079,China,CN,CHN,1468061,2888.8191719233823
Huazhou,21.654,110.6294,China,CN,CHN,1302100,7959.08024292729
Huizhou,23.1115,114.4152,China,CN,CHN,2509243,12142.20048756471
Huludao,40.7094,120.8378,China,CN,CHN,2623541,7596.2727409695635
Huzhou,30.8925,120.0875,China,CN,CHN,1558826,13842.682816800772
Hyderabad City,25.3792,68.3683,Pakistan,PK,PAK,1732693,6156.734866028475
Hyderābād,17.385,78.4867,India,IN,IND,10494000,5296.375734428699
Hāora,22.58,88.3294,India,IN,IND,1077075,14698.585301471016
Ibadan,7.3964,3.9167,Nigeria,NG,NGA,3552000,3979.0989112183556
Ikare,7.5167,5.75,Nigeria,NG,NGA,1099931,7982.763471081291
Incheon,37.4833,126.6333,South Korea,KR,KOR,2936117,13405.108389763516
Indianapolis,39.7771,-86.1458,United States,US,USA,1659305,11598.965244570578
Indore,22.7167,75.8472,India,IN,IND,1994397,11732.013283575443
Islamabad,33.6931,73.0639,Pakistan,PK,PAK,1014825,7733.026838660058
Istanbul,41.0136,28.955,Turkey,TR,TUR,16079000,3586.7581483686677
Jabalpur,23.1667,79.9333,India,IN,IND,1267564,7920.059852232754
Jacksonville,30.3322,-81.6749,United States,US,USA,1220191,15968.793334075495
Jaipur,26.9,75.8,India,IN,IND,3073350,9446.930240121716
Jakarta,-6.175,106.8275,Indonesia,ID,IDN,33756000,14434.336060757567
Jamshedpur,22.7925,86.1842,India,IN,IND,1558000,10841.237130729553
Jeddah,21.5433,39.1728,Saudi Arabia,SA,SAU,3976000,14271.90846092431
Jepara,-6.5333,110.6667,Indonesia,ID,IDN,1257912,14476.350618421007
Jiamusi,46.8081,130.3653,China,CN,CHN,2552097,13322.257755380137
Jiangguanchi,34.0244,113.8201,China,CN,CHN,4379998,8079.020807493018
Jiangmen,22.5833,113.0833,China,CN,CHN,4630300,5800.70688307846
Jianguang,28.1958,115.7833,China,CN,CHN,1507402,9836.820273877494
Jiangyin,31.9087,120.2653,China,CN,CHN,1285785,16845.20469694757
Jiaozuo,35.229,113.2304,China,CN,CHN,3590700,7866.586961875751
Jiaxing,30.7522,120.75,China,CN,CHN,1518654,14926.886992045474
Jieyang,23.5533,116.3649,China,CN,CHN,6089400,10937.748902616748
Jilin,43.8519,126.5481,China,CN,CHN,2396000,8396.51369688287
Jinan,36.6667,116.9833,China,CN,CHN,5606374,5822.45569898647
Jincheng,35.4906,112.8483,China,CN,CHN,2279146,16248.027625046185
Jingdezhen,29.2942,117.2036,China,CN,CHN,1673200,10697.932635534715
Jingling,30.6667,113.1667,China,CN,CHN,1247400,13999.678611318683
Jinhua,29.1046,119.6494,China,CN,CHN,1463990,13777.331091388074
Jining,35.4,116.5667,China,CN,CHN,8357897,10677.246774926647
Jinzhou,41.1144,121.1292,China,CN,CHN,3126463,18036.949496775702
Jiujiang,29.7048,116.0021,China,CN,CHN,4896800,12857.903033601819
Jixi,45.2937,130.965,China,CN,CHN,1862165,5751.280775518475
Ji’an,27.1172,114.9793,China,CN,CHN,4956600,7060.851122833008
Jodhpur,26.28,73.02,India,IN,IND,1033918,11734.543739075058
Johannesburg,-26.2044,28.0456,South Africa,ZA,ZAF,8000000,13420.654998091537
Juárez,31.7386,-106.487,Mexico,MX,MEX,1321004,12002.52687199349
Kabul,34.5253,69.1783,Afghanistan,AF,AFG,4273156,12453.787159356647
Kaiyuan,36.0656,113.8153,China,CN,CHN,1160000,11177.199993103572
Kalamboli,19.2333,73.1333,India,IN,IND,1246381,9630.959678530275
Kampala,0.3136,32.5811,Uganda,UG,UGA,1680600,7762.6030466046
Kananga,-5.897,22.4488,Congo (Kinshasa),CD,COD,1971704,8663.134007423167
Kano,12.0,8.5167,Nigeria,NG,NGA,3848885,2084.424272103219
Kansas City,39.1238,-94.5541,United States,US,USA,1644497,12492.21228089241
Kaohsiung,22.615,120.2975,Taiwan,TW,TWN,2733566,7167.351347624154
Karachi,24.86,67.01,Pakistan,PK,PAK,15738000,14173.143843085889
Karaj,35.8272,50.9489,Iran,IR,IRN,1973470,10349.20412635434
Kawasaki,35.5167,139.7,Japan,JP,JPN,1539522,10190.189418932172
Kayseri,38.7225,35.4875,Turkey,TR,TUR,1389680,13593.824930179095
Kazan,55.7964,49.1089,Russia,RU,RUS,1243500,12560.16161519579
Kharkiv,49.9925,36.2311,Ukraine,UA,UKR,1446107,12260.96405844248
Khartoum,15.5006,32.56,Sudan,SD,SDN,7869000,9394.039717092513
Khulna,22.8167,89.55,Bangladesh,BD,BGD,1400689,15311.100010931355
Kigali,-1.9536,30.0606,Rwanda,RW,RWA,1156663,5280.719163745631
Kinshasa,-4.325,15.3222,Congo (Kinshasa),CD,COD,12836000,6311.25775536527
Kolkāta,22.5675,88.37,India,IN,IND,18502000,12308.862582338705
Konya,37.8667,32.4833,Turkey,TR,TUR,2232374,9595.85765473962
Kota,25.18,75.83,India,IN,IND,1001694,8133.012225888313
Kowloon,22.3167,114.1833,Hong Kong,HK,HKG,2108419,15046.415416093514
Krasnoyarsk,56.0089,92.8719,Russia,RU,RUS,1083865,12220.212470779814
Kuaidamao,41.7302,125.9471,China,CN,CHN,2324439,5593.446853559771
Kuala Lumpur,3.1478,101.6953,Malaysia,MY,MYS,8911000,12179.66006664102
Kumasi,6.6667,-1.6167,Ghana,GH,GHA,2069350,11069.421648155816
Kunming,25.0433,102.7061,China,CN,CHN,4422686,3460.232732642667
Kuwait City,29.3697,47.9783,Kuwait,KW,KWT,3000000,14274.482673994333
Kyiv,50.45,30.5233,Ukraine,UA,UKR,2963199,8590.32283592747
Kyōto,35.0117,135.7683,Japan,JP,JPN,1464890,8564.549294928236
Kōbe,34.69,135.1956,Japan,JP,JPN,1521707,7675.967883225623
La Paz,-16.5,-68.15,Bolivia,BO,BOL,2867504,4450.82303878673
Lagos,6.455,3.3841,Nigeria,NG,NGA,16637000,11655.6361856399
Lahore,31.5497,74.3436,Pakistan,PK,PAK,12306000,12932.756150181955
Laibin,23.7333,109.2333,China,CN,CHN,2233900,14669.70556025901
Laiwu,36.1833,117.6667,China,CN,CHN,1248636,6193.035164938038
Langfang,39.5196,116.7006,China,CN,CHN,5464087,12430.058421480704
Lanzhou,36.0617,103.8318,China,CN,CHN,3067141,12398.975233319397
Las Vegas,36.2333,-115.2654,United States,US,USA,2150373,10265.965889651943
Leiyang,26.4179,112.8457,China,CN,CHN,1151554,6791.620153188996
Leizhou,20.9147,110.0806,China,CN,CHN,1494700,11763.917921199134
Leshan,29.5854,103.7575,China,CN,CHN,3235759,10742.122425377369
León de los Aldama,21.1167,-101.6833,Mexico,MX,MEX,1579803,7418.23623075197
Liangshi,27.2578,111.7351,China,CN,CHN,1335900,12277.439327112856
Lianjiang,21.6146,110.2794,China,CN,CHN,1509400,13775.78875042111
Lianshan,40.7523,120.828,China,CN,CHN,2426000,10262.38082497046
Lianyuan,27.6961,111.6659,China,CN,CHN,1162928,14018.436299191271
Liaocheng,36.45,115.9833,China,CN,CHN,5952128,2699.851801883551
Liaoyang,41.2643,123.1772,China,CN,CHN,1858768,8851.059093979817
Liaoyuan,42.8976,125.1381,China,CN,CHN,1176239,5041.5840673658495
Lima,-12.06,-77.0375,Peru,PE,PER,10320000,14686.92621655282
Lincang,23.8864,100.0871,China,CN,CHN,2536000,14507.100116426238
Linfen,36.0812,111.5087,China,CN,CHN,4316610,10595.1683002309
Lingcheng,22.7,110.35,China,CN,CHN,1211637,6669.53895432218
Linhai,28.8523,121.1409,China,CN,CHN,1028813,13384.427588450297
Linyi,35.1041,118.3502,China,CN,CHN,11018365,4525.394526525046
Lisbon,38.7253,-9.15,Portugal,PT,PRT,2719000,12370.887931719335
Lishui,28.45,119.9167,China,CN,CHN,2507396,3799.3379174670517
Liuzhou,24.3264,109.4281,China,CN,CHN,4157934,11798.56406435974
London,51.5072,-0.1275,United Kingdom,GB,GBR,11262000,11651.752195237937
Longba,33.535,105.349,China,CN,CHN,2567718,14096.378805200004
Longyan,25.0881,117.0244,China,CN,CHN,2723637,11118.940186915437
Los Angeles,34.1141,-118.4068,United States,US,USA,12121244,5498.316676698512
Loudi,27.7378,111.9974,China,CN,CHN,3931800,8519.464164415587
Louisville,38.1663,-85.6485,United States,US,USA,1022630,5091.725259753289
Luanda,-8.8383,13.2344,Angola,AO,AGO,9051000,3079.8662778136
Lubumbashi,-11.6647,27.4794,Congo (Kinshasa),CD,COD,1786397,7445.402779068073
Lucknow,26.85,80.95,India,IN,IND,3382000,8719.736186331907
Ludhiāna,30.91,75.85,India,IN,IND,1618879,16259.487557985492
Luohe,33.583,114.0109,China,CN,CHN,2544266,8241.201978355506
Luoyang,34.6587,112.4245,China,CN,CHN,2372571,2959.145579129827
Lusaka,-15.4167,28.2833,Zambia,ZM,ZMB,2467563,10633.008683107215
Luzhou,28.8918,105.4409,China,CN,CHN,4218427,4061.426454682835
Lu’an,31.7542,116.5078,China,CN,CHN,5611701,8673.95705705068
Maceió,-9.6658,-35.735,Brazil,BR,BRA,1025360,7858.49424781159
Madrid,40.4169,-3.7033,Spain,ES,ESP,6211000,15536.066943368394
Madurai,9.9252,78.1198,India,IN,IND,1561129,9851.30117449505
Maiduguri,11.8333,13.15,Nigeria,NG,NGA,1197497,9530.064208056036
Makassar,-5.1619,119.4362,Indonesia,ID,IDN,1338663,5023.539145717058
Malang,-7.98,112.62,Indonesia,ID,IDN,2795209,7391.194530030585
Managua,12.1544,-86.2738,Nicaragua,NI,NIC,1028808,10290.852011013732
Manaus,-3.1,-60.0167,Brazil,BR,BRA,2219580,11550.084289378014
Manchester,53.4794,-2.2453,United Kingdom,GB,GBR,2705000,9485.058456044222
Mandalay,21.9831,96.0844,Myanmar,MM,MMR,1319452,15324.816986000507
Manhattan,40.7834,-73.9662,United States,US,USA,1694263,15998.184093058871
Manila,14.5958,120.9772,Philippines,PH,PHL,24922000,3018.2171560403426
Maoming,21.6618,110.9178,China,CN,CHN,6313200,7229.173382837883
Maputo,-25.9667,32.5833,Mozambique,MZ,MOZ,1191613,6353.601128278767
Maracaibo,10.6333,-71.6333,Venezuela,VE,VEN,2658355,13392.322512508526
Mashhad,36.3,59.6,Iran,IR,IRN,3372090,14394.618481208347
Matola,-25.9667,32.4667,Mozambique,MZ,MOZ,1032197,6429.187245859033
Ma’anshan,31.6858,118.5101,China,CN,CHN,2202899,17306.769579841442
Mbandaka,0.0478,18.2558,Congo (Kinshasa),CD,COD,1187837,5131.664268398133
Mbuji-Mayi,-6.15,23.6,Congo (Kinshasa),CD,COD,2643000,6538.020123700324
Mecca,21.4225,39.8233,Saudi Arabia,SA,SAU,1675368,11773.705768705826
Medan,3.5894,98.6739,Indonesia,ID,IDN,3632000,11852.875064022293
Medellín,6.2308,-75.5906,Colombia,CO,COL,2529403,14401.627592031855
Medina,24.47,39.61,Saudi Arabia,SA,SAU,1180770,4462.080953786881
Meerut,28.98,77.71,India,IN,IND,1305429,7233.196134797188
Meishan,30.0575,103.8381,China,CN,CHN,2950545,7900.354599696166
Meizhou,24.2998,116.1191,China,CN,CHN,4378800,11727.041457662277
Melbourne,-37.8142,144.9631,Australia,AU,AUS,4529500,7305.2954852397
Memphis,35.1087,-89.9663,United States,US,USA,1034498,11748.201466996989
Mersin,36.8,34.6333,Turkey,TR,TUR,1814468,9551.871084777506
Meru,0.05,37.65,Kenya,KE,KEN,1833000,10651.557725303734
Mexicali,32.6633,-115.4678,Mexico,MX,MEX,1102342,8195.187998699434
Mexico City,19.4333,-99.1333,Mexico,MX,MEX,21804000,6601.5773753509175
Miami,25.784,-80.2101,United States,US,USA,5711945,12849.317500065139
Mianyang,31.4669,104.7385,China,CN,CHN,4868243,4412.774961085887
Milan,45.4669,9.19,Italy,IT,ITA,1366180,9670.858901411772
Milwaukee,43.0642,-87.9675,United States,US,USA,1340981,11684.62545596192
Minneapolis,44.9635,-93.2678,United States,US,USA,2856952,14789.77927718355
Minsk,53.9,27.5667,Belarus,BY,BLR,2009786,9464.448231948023
Mirzāpur,25.146,82.569,India,IN,IND,2496970,8967.779146799288
Mizhou,35.99,119.3801,China,CN,CHN,1060000,10287.786782166519
Mogadishu,2.0392,45.3419,Somalia,SO,SOM,4249083,8043.323403470935
Mombasa,-4.05,39.6667,Kenya,KE,KEN,1208333,13611.321718730083
Monrovia,6.3133,-10.8014,Liberia,LR,LBR,1021762,6490.080332529148
Monterrey,25.6667,-100.3,Mexico,MX,MEX,5341171,9797.8576960637
Montevideo,-34.8836,-56.1819,Uruguay,UY,URY,1719453,16869.4037949009
Montréal,45.5089,-73.5617,Canada,CA,CAN,3519595,4236.33212078403
Moscow,55.7558,37.6178,Russia,RU,RUS,17332000,14288.927853234596
Mosul,36.34,43.13,Iraq,IQ,IRQ,1694000,10257.670276527855
Mudanjiang,44.5861,129.5997,China,CN,CHN,2798723,9233.31228848749
Multan,30.1978,71.4697,Pakistan,PK,PAK,1871843,4821.030628647866
Mumbai,19.0761,72.8775,India,IN,IND,24973000,18189.734742393684
Munich,48.1375,11.575,Germany,DE,DEU,2606021,17667.933679013397
Muscat,23.6139,58.5922,Oman,OM,OMN,1421409,9351.320428357682
Nagoya,35.1833,136.9,Japan,JP,JPN,9197000,12206.160234955998
Nairobi,-1.2864,36.8172,Kenya,KE,KEN,5545000,7313.645016964996
Najafgarh,28.6092,76.9798,India,IN,IND,1203180,8495.601643831882
Nanchang,28.6842,115.8872,China,CN,CHN,3576547,7736.327275390515
Nanchong,30.7991,106.0784,China,CN,CHN,6278614,10732.56600171234
Nangandao,35.2992,113.8851,China,CN,CHN,5708191,15818.45710806318
Nanjing,32.0608,118.7789,China,CN,CHN,8422000,12203.185552983787
Nanning,22.8192,108.315,China,CN,CHN,3837978,13146.50155664929
Nanping,26.6448,118.1728,China,CN,CHN,2690000,19004.79029094543
Nantong,31.9829,120.8873,China,CN,CHN,2261382,11735.375482826948
Nanyang,32.9987,112.5292,China,CN,CHN,10013600,5800.019904193052
Nashville,36.1715,-86.7842,United States,US,USA,1098486,15916.857489861726
Nay Pyi Taw,19.7475,96.115,Myanmar,MM,MMR,1160242,12324.671934535152
Neijiang,29.5872,105.0635,China,CN,CHN,3702847,10114.574821471217
New York,40.6943,-73.9249,United States,US,USA,18972871,8071.665104310279
Nezahualcóyotl,19.4006,-99.0148,Mexico,MX,MEX,1077208,5693.597831078891
Niamey,13.515,2.1175,Niger,NE,NER,1026848,7766.499950572455
Ningbo,29.875,121.5492,China,CN,CHN,4087523,7855.202301401215
Ningde,26.6617,119.5228,China,CN,CHN,2910000,6919.120434458239
Nizhniy Novgorod,56.3269,44.0075,Russia,RU,RUS,1264075,13174.735258833556
Nouakchott,18.0858,-15.9785,Mauritania,MR,MRT,1077169,8807.309209539864
Novosibirsk,55.0333,82.9167,Russia,RU,RUS,1625631,8406.497638793997
Nur-Sultan,51.1472,71.4222,Kazakhstan,KZ,KAZ,1078362,10926.497822548981
Nāgpur,21.1497,79.0806,India,IN,IND,2405665,7687.849844969472
Nārāyanganj,23.62,90.5,Bangladesh,BD,BGD,1572386,11355.615346406235
Nāsik,20.0,73.78,India,IN,IND,1486053,6602.879176488735
N’Djamena,12.11,15.05,Chad,TD,TCD,1092066,12967.606867132368
Odesa,46.4775,30.7326,Ukraine,UA,UKR,1017699,10131.214220476384
Ogbomoso,8.1333,4.25,Nigeria,NG,NGA,1032000,10029.64802771955
Omdurman,15.65,32.4833,Sudan,SD,SDN,2805396,13376.531385533279
Omsk,54.9667,73.3833,Russia,RU,RUS,1178391,7359.3702641402115
Onitsha,6.1667,6.7833,Nigeria,NG,NGA,1483000,7894.661335987381
Orlando,28.4773,-81.337,United States,US,USA,1927699,13024.534202645536
Oslo,59.9133,10.7389,Norway,NO,NOR,1064235,9614.799030681741
Ouagadougou,12.3686,-1.5275,Burkina Faso,BF,BFA,2453496,10668.941387993169
Palembang,-2.9861,104.7556,Indonesia,ID,IDN,1535952,11652.2359817075
Panama City,8.9833,-79.5167,Panama,PA,PAN,1500189,9933.61035585175
Paris,48.8567,2.3522,France,FR,FRA,11060000,6991.94997656945
Patna,25.6,85.1,India,IN,IND,1684222,14346.452430468917
Perm,58.0139,56.2489,Russia,RU,RUS,1048005,7143.46142792468
Perth,-31.9559,115.8606,Australia,AU,AUS,2141834,6907.157093063855
Peshawar,34.0144,71.5675,Pakistan,PK,PAK,1970042,10899.484896836431
Philadelphia,40.0077,-75.1339,United States,US,USA,5512873,11891.915621644881
Phnom Penh,11.5694,104.9211,Cambodia,KH,KHM,2129371,6453.235810914784
Phoenix,33.5722,-112.0892,United States,US,USA,4047095,8145.0129592156545
Pikine,14.75,-17.4,Senegal,SN,SEN,1170791,11175.07312678607
Pingdingshan,33.735,113.2999,China,CN,CHN,4904701,16477.71937247794
Pingdu,36.7833,119.9556,China,CN,CHN,1378900,9144.062445905965
Pingliang,35.5412,106.6819,China,CN,CHN,2068033,9981.342597843191
Pingxiang,27.6333,113.85,China,CN,CHN,1933200,4075.3264181568825
Pittsburgh,40.4397,-79.9763,United States,US,USA,1720279,12675.232968279355
Pizhou,34.3422,118.0097,China,CN,CHN,1458038,4402.496578834101
Port Harcourt,4.8242,7.0336,Nigeria,NG,NGA,1865000,2721.604363854407
Portland,45.5371,-122.65,United States,US,USA,2036875,7920.557925910466
Porto,41.1621,-8.622,Portugal,PT,PRT,1278210,7926.471474252682
Porto Alegre,-30.0331,-51.23,Brazil,BR,BRA,1484941,9030.05874910117
Prague,50.0875,14.4214,Czechia,CZ,CZE,1335084,11933.300571175489
Prayagraj,25.4358,81.8464,India,IN,IND,5954391,10309.990857289817
Providence,41.823,-71.4187,United States,US,USA,1270149,5065.636053525096
Pudong,31.2231,121.5397,China,CN,CHN,5681512,12487.560324873268
Puebla,19.0333,-98.1833,Mexico,MX,MEX,1576259,5309.3209806820305
Pune,18.5203,73.8567,India,IN,IND,8231000,15311.232856326647
Puning,23.2993,116.1586,China,CN,CHN,2118200,13802.193682144032
Putian,25.4394,119.0103,China,CN,CHN,3210714,6030.126288155202
Puyang,35.7639,115.03,China,CN,CHN,3598740,6072.023019931296
Pyongyang,39.0194,125.7381,North Korea,KP,PRK,2863000,14705.041411435284
Qinbaling,35.7278,107.64,China,CN,CHN,2211191,13974.341257218317
Qincheng,34.5809,105.7311,China,CN,CHN,3262549,11356.26573517371
Qingdao,36.1167,120.4,China,CN,CHN,5818255,9424.997396159808
Qingyang,24.8141,118.5792,China,CN,CHN,2111000,8219.338310328936
Qingyuan,23.6842,113.0507,China,CN,CHN,3969473,8933.993037639271
Qinhuangdao,39.9398,119.5881,China,CN,CHN,3146300,9280.982249163882
Qinzhou,21.95,108.6167,China,CN,CHN,3304400,10207.045736553122
Qiqihar,47.3398,123.9512,China,CN,CHN,5367003,12914.942089857117
Qom,34.64,50.8764,Iran,IR,IRN,1201158,9440.665649267483
Quanzhou,24.9139,118.5858,China,CN,CHN,8782285,8218.624233535647
Queens,40.7498,-73.7976,United States,US,USA,2405464,17227.621991928914
Quetta,30.1833,67.0,Pakistan,PK,PAK,1001205,7588.698276823732
Quezon City,14.63,121.03,Philippines,PH,PHL,2960048,2340.610402014955
Quito,-0.22,-78.5125,Ecuador,EC,ECU,2011388,3323.0533718876763
Qujing,25.5102,103.8029,China,CN,CHN,6155400,7310.873016343867
Quảng Hà,15.9333,108.2667,Vietnam,VN,VNM,1000000,8834.895176157188
Raipur,21.25,81.63,India,IN,IND,1010087,12224.187587919218
Raleigh,35.8324,-78.6429,United States,US,USA,1062018,12148.511726746072
Rangapukur,25.56,89.25,Bangladesh,BD,BGD,1031388,8937.591603324192
Rangoon,16.795,96.16,Myanmar,MM,MMR,5209541,7962.462576828967
Rawalpindi,33.6,73.0333,Pakistan,PK,PAK,2098231,12085.916846084287
Recife,-8.05,-34.9,Brazil,BR,BRA,1653461,7917.665390710481
Richmond,37.5295,-77.4756,United States,US,USA,1008069,8573.208897429224
Rio de Janeiro,,-43.2056,Brazil,BR,BRA,12592000,
Riverside,33.9381,-117.3949,United States,US,USA,2022285,4964.39466792796
Riyadh,24.6333,46.7167,Saudi Arabia,SA,SAU,7237000,15436.691806321747
Rizhao,35.4164,119.4331,China,CN,CHN,2968365,3816.118337500284
Rome,41.8931,12.4828,Italy,IT,ITA,2872800,10915.58983800927
Rongcheng,29.8239,112.9019,China,CN,CHN,1162770,17315.782587894886
Rongcheng,26.2312,104.0966,China,CN,CHN,1302891,6635.078563205837
Rosario,-32.9575,-60.6394,Argentina,AR,ARG,1276000,15342.923801675188
Rostov,47.2333,39.7,Russia,RU,RUS,1137704,13279.231774613847
Rucheng,32.3852,120.5634,China,CN,CHN,1267066,7308.594904787023
Rui’an,27.778,120.6526,China,CN,CHN,1424667,9604.954054938738
Rājkot,22.3,70.7833,India,IN,IND,1335397,5813.298083403138
Rānchi,23.36,85.33,India,IN,IND,1073440,1452.832222334854
Sacramento,38.5677,-121.4685,United States,US,USA,1924167,12295.759014424544
Saidu Sharif,34.75,72.3572,Pakistan,PK,PAK,1860310,12661.195574002984
Saint Petersburg,59.95,30.3167,Russia,RU,RUS,5384342,10437.890000950945
Saitama,35.8614,139.6456,Japan,JP,JPN,1325843,11822.812143290184
Salt Lake City,40.7776,-111.9311,United States,US,USA,1135344,10670.404767775144
Salvador,-12.9747,-38.4767,Brazil,BR,BRA,2886698,14718.2261628539
Samara,53.2028,50.1408,Russia,RU,RUS,1169719,5318.03082073424
Samsun,41.2903,36.3336,Turkey,TR,TUR,1335716,11726.753686638647
San Antonio,29.4632,-98.5238,United States,US,USA,1910785,9123.59092944812
San Diego,32.8313,-117.1222,United States,US,USA,3084174,11589.268035288263
San Francisco,37.7558,-122.4449,United States,US,USA,3290197,7170.954440131363
San Jose,37.3012,-121.848,United States,US,USA,1729879,7864.233371132207
San José,9.9325,-84.08,Costa Rica,CR,CRI,1543000,13686.972103871738
San Juan,18.3985,-66.061,Puerto Rico,PR,PRI,1915105,13114.432253098445
Sanaa,15.3483,44.2064,Yemen,YE,YEM,2957000,3757.6196464981726
Sangereng,-6.2889,106.7181,Indonesia,ID,IDN,1644899,15868.008253406575
Sanmenxia,34.7736,111.195,China,CN,CHN,2234018,5021.489566196527
Sanming,26.2658,117.6302,China,CN,CHN,2580000,3349.4288486385094
Santa Cruz,-17.7892,-63.1975,Bolivia,BO,BOL,3151676,13178.815147930836
Santiago,19.4572,-70.6889,Dominican Republic,DO,DOM,1343423,7908.89564165662
Santiago,-33.4372,-70.6506,Chile,CL,CHL,7171000,12351.701192029914
Santo Domingo,18.4764,-69.8933,Dominican Republic,DO,DOM,2581827,2151.8281254449485
Santos,-23.9369,-46.325,Brazil,BR,BRA,1897551,11055.85741694584
Sanya,18.2533,109.5036,China,CN,CHN,1031396,2184.3681803646487
Sanzhou,30.82,108.4,China,CN,CHN,1680000,13835.794728489072
Sapporo,43.0667,141.35,Japan,JP,JPN,1961690,12780.874541345886
Seattle,47.6211,-122.3244,United States,US,USA,3438221,7781.065537783129
Semarang,-6.9667,110.4167,Indonesia,ID,IDN,1621384,10335.138622051027
Sendai,38.2682,140.8694,Japan,JP,JPN,1061177,18472.20101454899
Seoul,37.56,126.99,South Korea,KR,KOR,23016000,15642.909522823598
Sevilla,37.24,-5.99,Spain,ES,ESP,1100000,10562.173693592023
Shagamu,6.8333,3.65,Nigeria,NG,NGA,1132270,9121.560713187662
Shanghai,31.1667,121.4667,China,CN,CHN,24073000,9582.57677326276
Shangqiu,34.4259,115.6467,China,CN,CHN,7816831,18367.955052511083
Shangrao,28.4419,117.9633,China,CN,CHN,6810700,4426.142523611726
Shangzhou,33.868,109.9244,China,CN,CHN,2341742,12441.236931710851
Shantou,23.3735,116.6941,China,CN,CHN,4312192,3513.0301783984164
Shanwei,22.7664,115.3331,China,CN,CHN,2993600,7389.87557047657
Shaoguan,24.8011,113.5927,China,CN,CHN,2997600,8624.685651376405
Shaoxing,30.0,120.5833,China,CN,CHN,2521964,4913.017048849962
Shaoyang,32.9387,119.8404,China,CN,CHN,1253548,7176.739346322493
Shaoyang,27.2418,111.4725,China,CN,CHN,7370500,3930.6261465726984
Sharjah,25.3575,55.3908,United Arab Emirates,AE,ARE,1247749,7172.160697151442
Shengli,37.45,118.4667,China,CN,CHN,2193518,12828.927004576457
Shenyang,41.8025,123.4281,China,CN,CHN,7964000,9874.660175552788
Shijiazhuang,38.0422,114.5086,China,CN,CHN,4098243,6786.3280763169
Shiyan,32.6351,110.7755,China,CN,CHN,3398000,17768.2872155824
Shouguang,36.8833,118.7333,China,CN,CHN,1039205,5410.835401357055
Shuangyashan,46.6388,131.1545,China,CN,CHN,1462626,9168.94249959812
Shubrā al Khaymah,30.1286,31.2422,Egypt,EG,EGY,1025569,12231.774535941078
Shuizhai,33.4433,114.8994,China,CN,CHN,1003698,14340.992536136118
Shuozhou,39.3408,112.4292,China,CN,CHN,1714857,12292.443255657241
Shuyangzha,34.1299,118.7734,China,CN,CHN,1770000,6972.9356778939145
Shymkent,42.3167,69.5958,Kazakhstan,KZ,KAZ,1028673,17277.89527980272
Shīrāz,29.61,52.5425,Iran,IR,IRN,1565572,1872.5632201256478
Singapore,1.3,103.8,Singapore,SG,SGP,5983000,15768.08898186337
Siping,43.1715,124.3644,China,CN,CHN,3385156,14939.019657620318
Sofia,42.7,23.33,Bulgaria,BG,BGR,1547779,5222.410761405141
Soweto,-26.2678,27.8585,South Africa,ZA,ZAF,1271628,15529.386485741754
Srīnagar,34.09,74.79,India,IN,IND,1180570,8513.39825155959
St. Louis,38.6359,-90.2451,United States,US,USA,2092481,10445.652165872172
Stockholm,59.3294,18.0686,Sweden,SE,SWE,1611776,13236.829841701276
Stuttgart,48.7775,9.18,Germany,DE,DEU,2787724,13632.654681885082
Suihua,46.6384,126.9808,China,CN,CHN,5418153,8579.125479301165
Suining,30.5098,105.5737,China,CN,CHN,3252619,8949.636611844138
Sumedang,-6.84,107.9208,Indonesia,ID,IDN,1240000,17071.050429020845
Suqian,33.9331,118.2831,China,CN,CHN,4986192,553.6825005114473
Surabaya,-7.2458,112.7378,Indonesia,ID,IDN,6499000,5688.697410352506
Suwon,37.2667,127.0167,South Korea,KR,KOR,1234300,10001.117410699588
Suzhou,33.6333,116.9683,China,CN,CHN,5352924,10110.9934625507
Suzhou,31.3,120.6194,China,CN,CHN,4330000,10859.583123259532
Sydney,-33.8678,151.21,Australia,AU,AUS,4840600,7997.741416617385
São Gonçalo,-22.8269,-43.0539,Brazil,BR,BRA,1077687,12550.09890880087
São Luís,-2.5283,-44.3044,Brazil,BR,BRA,1108975,6364.534415157095
São Paulo,-23.55,-46.6333,Brazil,BR,BRA,23086000,7871.200594771488
Sūrat,21.1702,72.8311,India,IN,IND,6538000,1130.8346146637107
Tabrīz,38.0814,46.3006,Iran,IR,IRN,1558693,8213.6884004329
Taichung,24.1439,120.6794,Taiwan,TW,TWN,3033885,10027.352350369769
Tainan,22.9833,120.1833,Taiwan,TW,TWN,1874686,13772.895514170175
Taipei,25.0375,121.5625,Taiwan,TW,TWN,9078000,5799.714839141017
Taixing,32.1724,120.0142,China,CN,CHN,1073921,7462.687418380228
Taiyuan,37.8733,112.5425,China,CN,CHN,3875053,10640.916702901728
Taizhou,32.4831,119.9,China,CN,CHN,5031000,7897.4542724082185
Taizhou,28.6583,121.4221,China,CN,CHN,2162461,10268.313602195796
Tai’an,36.2001,117.0809,China,CN,CHN,5494207,13487.309735364865
Tamale,9.4075,-0.8533,Ghana,GH,GHA,1095808,11008.237837158458
Tampa,27.9945,-82.4447,United States,US,USA,2683956,8883.92700602595
Tangerang,-6.1783,106.6319,Indonesia,ID,IDN,2237006,11691.054361487457
Tangshan,39.6292,118.1742,China,CN,CHN,3399231,2877.7808798373267
Tashkent,41.3111,69.2797,Uzbekistan,UZ,UZB,2571668,11183.348438610175
Tbilisi,41.7225,44.7925,Georgia,GE,GEO,1118035,5859.263527076608
Tegucigalpa,14.1,-87.2167,Honduras,HN,HND,1682725,5845.599720622439
Tehran,35.6892,51.3889,Iran,IR,IRN,14148000,0.0
Tel Aviv-Yafo,32.08,34.78,Israel,IL,ISR,1388400,18124.44103694741
Thāne,19.1972,72.9722,India,IN,IND,1886941,11549.728116645245
Thủ Đức,10.8266,106.7609,Vietnam,VN,VNM,1013795,11299.455783986392
Tianjin,39.1467,117.2056,China,CN,CHN,10368000,13108.661288797928
Tieling,42.2841,123.8365,China,CN,CHN,2717732,14723.5646385452
Tijuana,32.525,-117.0333,Mexico,MX,MEX,2002000,8835.273496222419
Timbío,2.3445,-76.6839,Colombia,CO,COL,4444444,4721.024508073651
Tokyo,35.6897,139.6922,Japan,JP,JPN,37732000,8625.273000050096
Tongjin,37.2333,127.2,South Korea,KR,KOR,1076369,12780.476236256445
Tongliao,43.6172,122.264,China,CN,CHN,3139153,12263.286704111853
Tongren,27.7233,109.1885,China,CN,CHN,3168800,14152.493556031579
Tongshan,34.261,117.1859,China,CN,CHN,9083790,953.3422121474339
Toronto,43.7417,-79.3733,Canada,CA,CAN,5429524,7840.059560052717
Tripoli,32.8872,13.1914,Libya,LY,LBY,1293016,9280.370276276577
Tunis,36.8064,10.1817,Tunisia,TN,TUN,1056247,11217.324081980381
Ufa,54.7261,55.9475,Russia,RU,RUS,1115560,2691.1493898583867
Ulaanbaatar,47.9203,106.9172,Mongolia,MN,MNG,1396288,6331.588477018722
Ulsan,35.55,129.3167,South Korea,KR,KOR,1166033,5854.3321901307745
Vadodara,22.3,73.2,India,IN,IND,2065771,5013.921476206881
Valencia,10.1667,-68.0,Venezuela,VE,VEN,1484430,12619.346943146193
Vancouver,49.25,-123.1,Canada,CA,CAN,2264823,11548.152292638368
Vasai,19.47,72.8,India,IN,IND,1222390,10444.156593350861
Vereeniging,-26.6736,27.9319,South Africa,ZA,ZAF,1074000,12667.04035868635
Vienna,48.2083,16.3725,Austria,AT,AUT,1973403,13218.266064230666
Vijayavāda,16.5193,80.6305,India,IN,IND,1048240,14157.32845293869
Vila Velha,3.2167,-51.2167,Brazil,BR,BRA,1209091,9926.944161160918
Virginia Beach,36.7335,-76.0435,United States,US,USA,1500764,18081.083447233686
Vishākhapatnam,17.7042,83.2978,India,IN,IND,2035922,978.338230271735
Volgograd,48.7086,44.5147,Russia,RU,RUS,1015586,6889.1408026610925
Voronezh,51.6717,39.2106,Russia,RU,RUS,1050602,10168.967981315272
Vārānasi,25.3189,83.0128,India,IN,IND,1198491,8299.624382176791
Wafangdian,39.6271,121.9972,China,CN,CHN,1024876,5417.920233997398
Warsaw,52.23,21.0111,Poland,PL,POL,1860281,6648.612326552699
Washington,38.9047,-77.0163,United States,US,USA,4810669,12777.019213834252
Weifang,36.7167,119.1,China,CN,CHN,2636154,9615.383989338741
Weihai,37.5,122.1,China,CN,CHN,2906548,12691.65353201678
Weinan,34.4996,109.4684,China,CN,CHN,5286077,15379.25374834214
Wenling,28.3797,121.3718,China,CN,CHN,1416199,12911.128975525802
Wenzhou,27.9991,120.6561,China,CN,CHN,3604446,9755.576580156667
Wuhan,30.5872,114.2881,China,CN,CHN,10251000,5962.215402734414
Wuhu,31.334,118.3622,China,CN,CHN,3842100,12257.245975306645
Wusong,30.9333,117.7667,China,CN,CHN,1311726,7543.112951271598
Wutong,30.6326,120.5474,China,CN,CHN,1029754,10020.177794731666
Wuwei,37.9278,102.6329,China,CN,CHN,1815059,10691.968242118892
Wuxi,31.5667,120.2833,China,CN,CHN,3245179,11898.803421887105
Wuzhong,37.9874,106.1919,China,CN,CHN,1382713,9009.865565143498
Wuzhou,23.4833,111.3167,China,CN,CHN,3061100,3622.8259390736007
Xiamen,24.4797,118.0819,China,CN,CHN,3707090,8315.285719447118
Xiangshui,26.5964,104.8314,China,CN,CHN,1221000,13677.99382232512
Xiangtan,27.8431,112.9228,China,CN,CHN,2864800,15346.13996295633
Xiangyang,32.0654,112.1531,China,CN,CHN,5680000,4051.0854239479845
Xiantao,30.3833,113.4,China,CN,CHN,1140100,1056.2666505966872
Xianyang,34.35,108.7167,China,CN,CHN,5096001,7941.279215051936
Xiaoganzhan,30.9273,113.911,China,CN,CHN,4921000,13932.076429420089
Xiaoxita,30.7083,111.2803,China,CN,CHN,4137900,13500.098882890989
Xiashi,30.5333,120.6833,China,CN,CHN,1076199,4144.640306609712
Xibeijie,39.737,98.5049,China,CN,CHN,1095947,10659.230084875904
Ximeicun,24.9633,118.3811,China,CN,CHN,1508000,8512.737704167432
Xingtai,37.0659,114.4753,China,CN,CHN,7111106,8906.537220526225
Xingyi,25.091,104.9011,China,CN,CHN,1004132,14214.798848380386
Xining,36.6239,101.7787,China,CN,CHN,2467965,3346.540641402152
Xinpu,34.5906,119.1801,China,CN,CHN,4599360,6689.596493682821
Xintai,35.91,117.78,China,CN,CHN,1315942,14969.727462841853
Xinyang,32.1264,114.0672,China,CN,CHN,6234401,4457.766381688974
Xinyi,22.3559,110.9369,China,CN,CHN,1013900,16583.96224962112
Xinyu,27.795,114.9242,China,CN,CHN,1202499,13749.077679248536
Xinzhou,38.4178,112.7233,China,CN,CHN,3067501,9074.618435134113
Xiping,40.082,113.2981,China,CN,CHN,1873000,17382.4617742082
Xishan,27.6609,113.4946,China,CN,CHN,1060000,7606.114833184325
Xi’an,34.2667,108.9,China,CN,CHN,12328000,16035.505382241732
Xuanzhou,30.9475,118.7518,China,CN,CHN,2532938,7669.275277223709
Xushan,30.1697,121.2665,China,CN,CHN,1502000,9818.415205135372
Yancheng,33.3936,120.1339,China,CN,CHN,7260240,5453.187756267301
Yangjiang,21.8556,111.9627,China,CN,CHN,2555600,9227.818157700493
Yangquan,37.8576,113.5762,China,CN,CHN,1368502,8927.19272999789
Yangshe,31.8775,120.5512,China,CN,CHN,1432044,12971.679290824908
Yangzhou,32.3912,119.4363,China,CN,CHN,4559797,12732.784640414133
Yanjiang,30.1256,104.6397,China,CN,CHN,2593843,13398.570313213004
Yantai,37.3997,121.2664,China,CN,CHN,2511053,10997.543126806004
Yan’an,36.5952,109.4863,China,CN,CHN,2282581,11720.081061440458
Yaoundé,3.8667,,Cameroon,CM,CMR,2440462,
Yekaterinburg,56.8356,60.6128,Russia,RU,RUS,1468833,7011.800178740273
Yerevan,40.1814,44.5144,Armenia,AM,ARM,1075800,10822.16485090242
Yibin,28.7596,104.64,China,CN,CHN,4588804,8070.365496652212
Yicheng,31.3697,119.8239,China,CN,CHN,1285785,15124.674532828409
Yichun,47.7235,128.8893,China,CN,CHN,1148126,7556.131382601959
Yichun,27.8041,114.383,China,CN,CHN,5573200,17585.161454123183
Yinchuan,38.4795,106.2254,China,CN,CHN,1901793,17223.397142366426
Yingchuan,34.1511,113.4733,China,CN,CHN,1131896,5253.667494341831
Yingkou,40.6653,122.2297,China,CN,CHN,2428534,15068.406078456292
Yingtan,28.2333,117.0,China,CN,CHN,1175000,11294.879706997981
Yiwu,29.3081,120.0698,China,CN,CHN,1234015,7954.352914557978
Yiyang,28.5833,112.3333,China,CN,CHN,4413800,11803.419463781318
Yokohama,35.4442,139.6381,Japan,JP,JPN,3757630,7797.73368688391
Yongcheng,33.9317,116.4459,China,CN,CHN,1240382,8946.881137807846
Yongzhou,26.4515,111.5953,China,CN,CHN,5452100,9507.752263021772
Yopougon,5.3167,-4.0667,Côte d'Ivoire,CI,CIV,1571065,11847.10838059902
Yucheng,29.9888,103.0007,China,CN,CHN,1507258,13351.69387492913
Yulin,22.6293,110.1507,China,CN,CHN,5849700,6063.288850881349
Yulinshi,38.2655,109.7388,China,CN,CHN,3634750,16736.483683721388
Yuncheng,35.0304,110.998,China,CN,CHN,5134779,14676.545843632135
Yunfu,22.9242,112.0353,China,CN,CHN,2526900,15963.267637604704
Yushan,31.3867,120.9766,China,CN,CHN,2092496,6490.97225693098
Yushu,44.8249,126.5451,China,CN,CHN,1304436,12060.101878773485
Yutan,28.3147,112.554,China,CN,CHN,1368117,8087.740868971931
Yuxi,24.3495,102.5432,China,CN,CHN,2386000,1211.035469843535
Yuyao,30.0372,121.1546,China,CN,CHN,1095000,13243.514149508697
Zaoyang,32.1287,112.7581,China,CN,CHN,1004741,5601.70567684472
Zaozhuang,34.8667,117.55,China,CN,CHN,3729140,8372.32605117406
Zapopan,20.7167,-103.4,Mexico,MX,MEX,1476491,5603.039814237556
Zhangjiajie,29.1255,110.4844,China,CN,CHN,1537900,7287.077258679635
Zhangjiakou,40.8108,114.8811,China,CN,CHN,4345485,11842.496665913352
Zhangye,38.9355,100.4553,China,CN,CHN,1199515,2588.5016984841473
Zhangzhou,24.5093,117.6612,China,CN,CHN,5140000,13019.44180108206
Zhanjiang,21.1967,110.4031,China,CN,CHN,7332000,6921.207593693695
Zhaoqing,23.05,112.4667,China,CN,CHN,4151700,10175.418823438855
Zhaotong,27.3328,103.7144,China,CN,CHN,5591000,7976.224827305475
Zhengzhou,34.7492,113.6605,China,CN,CHN,5621593,14281.501150451097
Zhenjiang,32.2109,119.4551,China,CN,CHN,3210418,12455.721241569216
Zhongli,24.965,121.2168,Taiwan,TW,TWN,1632616,11665.644440421032
Zhongshan,22.5333,113.35,China,CN,CHN,2909633,1470.3715629363678
Zhongwei,37.5139,105.1884,China,CN,CHN,1067336,3580.1787604427427
Zhongxiang,31.169,112.5853,China,CN,CHN,1022514,8744.247857682685
Zhoukou,33.625,114.6418,China,CN,CHN,9026015,10218.883199222852
Zhufeng,36.0,119.4167,China,CN,CHN,1081960,8542.451057676863
Zhuhai,22.2769,113.5678,China,CN,CHN,2439585,12228.596626070477
Zhuji,29.7169,120.2314,China,CN,CHN,1157938,10887.890472085566
Zhumadian,32.9773,114.0253,China,CN,CHN,7231234,11518.549302840522
Zhuzhou,,113.1469,China,CN,CHN,4020800,
Zibo,36.7831,118.0497,China,CN,CHN,2631647,4709.335513977744
Zigong,29.3498,104.7645,China,CN,CHN,2678899,12212.366173986331
Zunyi,27.705,106.9336,China,CN,CHN,6606675,16574.025703430365
Ürümqi,43.8225,87.6125,China,CN,CHN,4335017,13479.192730376943
Āgra,27.18,78.02,India,IN,IND,1585704,13996.450105161743
İzmir,38.42,27.14,Turkey,TR,TUR,4320519,5419.336580525553
Ōsaka,34.6939,135.5022,Japan,JP,JPN,15126000,3123.6886657045275
Şanlıurfa,37.1583,38.7917,Turkey,TR,TUR,1985753,14417.424304422912
